City ID,City,Cloudiness,Country,Date,Humidity,Lat,Lng,Max Temp,Wind Speed
0,Rikitea,91,PF,1619822594,78,-23.1203,-134.9692,78.78,20.4
1,Takapau,76,NZ,1619822594,75,-40.0333,176.35,55.99,8.03
2,Stonewall,90,CA,1619822595,70,50.1344,-97.3268,45.0,20.71
3,Narsaq,8,GL,1619822595,30,60.9167,-46.05,51.8,27.63
4,Busselton,99,AU,1619822595,98,-33.65,115.3333,51.01,5.44
5,Hofn,100,IS,1619822596,75,64.2539,-15.2082,36.09,10.58
6,Leeuwarden,90,NL,1619822596,93,53.2014,5.8086,46.0,1.14
7,Upernavik,100,GL,1619822596,80,72.7868,-56.1549,28.98,5.1
8,Katsuura,20,JP,1619822597,77,35.1333,140.3,62.6,5.75
9,San Miguel de Tucumán,40,AR,1619822414,73,-26.8241,-65.2226,68.0,6.91
10,Butaritari,74,KI,1619822597,74,3.0707,172.7902,83.46,11.99
11,Lebu,100,CL,1619822598,90,-37.6167,-73.65,56.41,22.79
12,Alenquer,75,BR,1619822598,100,-1.9417,-54.7383,73.4,2.3
13,New Norfolk,75,AU,1619822598,81,-42.7826,147.0587,53.01,10.36
14,Buluang,12,PH,1619822599,77,13.3068,123.3425,77.95,2.13
15,Ilulissat,71,GL,1619822599,65,69.2167,-51.1,37.4,3.44
16,Belyy Yar,0,RU,1619822599,80,53.6039,91.3903,35.6,2.24
17,Kangaatsiaq,73,GL,1619822599,77,68.3065,-53.4641,32.94,8.48
18,Kaitangata,72,NZ,1619822600,69,-46.2817,169.8464,52.0,3.0
19,Yuxia,0,CN,1619822600,54,34.0615,108.6291,57.2,4.47
20,Hilo,20,US,1619822593,54,19.7297,-155.09,84.2,11.5
21,Conway,1,US,1619822552,41,35.0887,-92.4421,78.01,5.75
22,Abu Samrah,0,SY,1619822601,32,35.3029,37.1841,68.4,6.06
23,Srednekolymsk,9,RU,1619822601,79,67.45,153.6833,23.77,10.76
24,Atuona,1,PF,1619822601,68,-9.8,-139.0333,79.25,4.05
25,Ribeira Grande,98,PT,1619822601,76,38.5167,-28.7,60.19,9.13
26,Vaini,75,TO,1619822602,89,-21.2,-175.2,78.8,12.66
27,Igarapava,0,BR,1619822602,69,-20.0383,-47.7469,75.2,6.91
28,Robinsonville,90,US,1619822602,78,31.4677,-97.1147,75.0,10.36
29,Jiuquan,100,CN,1619822603,13,39.7432,98.5174,62.28,3.51
30,Mahébourg,40,MU,1619822603,83,-20.4081,57.7,77.0,12.66
31,Cedar City,1,US,1619822603,10,37.6775,-113.0619,82.0,7.36
32,Effium,0,NG,1619822604,74,6.6292,8.0593,84.2,5.75
33,Ust'-Kulom,92,RU,1619822604,80,61.6864,53.6902,36.09,9.66
34,Hamilton,1,US,1619822389,34,39.1834,-84.5333,64.4,16.11
35,Provideniya,99,RU,1619822604,63,64.3833,-173.3,29.97,3.98
36,San Patricio,90,US,1619822605,88,28.017,-97.5169,73.99,19.57
37,Qaanaaq,97,GL,1619822605,65,77.484,-69.3632,30.87,6.67
38,Ushuaia,75,AR,1619822453,87,-54.8,-68.3,39.2,6.91
39,Tiksi,98,RU,1619822605,85,71.6872,128.8694,30.76,3.96
40,Buchanan,75,LR,1619822606,94,5.8808,-10.0467,77.0,9.22
41,East London,86,ZA,1619822606,76,-33.0153,27.9116,62.35,14.25
42,Suez,0,EG,1619822606,28,29.9737,32.5263,75.22,11.3
43,Mar del Plata,0,AR,1619822606,77,-38.0023,-57.5575,63.0,6.91
44,Falefa,20,WS,1619822607,66,-13.887,-171.588,89.6,12.66
45,Barrow,90,US,1619822607,79,71.2906,-156.7887,21.2,4.61
46,Punta Arenas,90,CL,1619822607,93,-53.15,-70.9167,42.8,4.61
47,Nemuro,94,JP,1619822608,76,43.3236,145.575,39.63,25.46
48,Ancud,90,CL,1619822608,100,-41.8697,-73.8203,55.0,13.8
49,Vila Franca do Campo,20,PT,1619822608,76,37.7167,-25.4333,51.8,5.75
50,Concepción del Uruguay,0,AR,1619822609,68,-32.4825,-58.2372,66.99,7.11
51,Kununurra,0,AU,1619822609,94,-15.7667,128.7333,60.8,4.34
52,Longyearbyen,75,SJ,1619822366,67,78.2186,15.6401,12.2,16.11
53,Carnarvon,76,AU,1619822609,55,-24.8667,113.6333,64.4,10.36
54,Shache,0,CN,1619822610,15,38.4167,77.2406,66.96,4.32
55,Chui,54,UY,1619822610,84,-33.6971,-53.4616,58.95,7.02
56,Bluff,95,NZ,1619822610,86,-46.6,168.3333,48.0,4.0
57,Buchach,83,UA,1619822611,92,49.0625,25.388,50.11,1.66
58,Aklavik,100,CA,1619822611,69,68.2191,-135.0107,33.8,6.91
59,Sobrance,76,SK,1619822611,86,48.7445,22.1814,51.01,2.46
60,Hermanus,0,ZA,1619822612,77,-34.4187,19.2345,54.0,6.6
61,San Quintín,0,MX,1619822612,47,30.4833,-115.95,74.08,15.05
62,Mataura,84,NZ,1619822612,86,-46.1927,168.8643,48.0,4.0
63,Kasempa,94,ZM,1619822612,93,-13.4584,25.8338,63.34,2.93
64,Bengkulu,95,ID,1619822613,88,-3.8004,102.2655,74.64,4.94
65,Albany,69,US,1619822613,63,42.6001,-73.9662,51.01,1.01
66,Prince Rupert,90,CA,1619822613,87,54.3161,-130.3201,46.4,9.22
67,Samarai,61,PG,1619822614,75,-10.6167,150.6667,81.03,8.95
68,Puerto Ayora,20,EC,1619822614,61,-0.7393,-90.3518,82.4,13.8
69,Dryden,1,CA,1619822614,15,49.7833,-92.7503,53.6,19.57
70,Sarangani,100,PH,1619822615,74,5.4033,125.4636,83.12,15.57
71,Saskylakh,100,RU,1619822615,92,71.9167,114.0833,30.45,6.62
72,Thompson,90,CA,1619822372,56,55.7435,-97.8558,39.2,4.61
73,Port Alfred,29,ZA,1619822616,83,-33.5906,26.891,59.97,14.09
74,Avarua,40,CK,1619822616,74,-21.2078,-159.775,80.6,6.91
75,Talcahuano,90,CL,1619822616,82,-36.7167,-73.1167,59.0,13.8
76,Chokurdakh,22,RU,1619822617,86,70.6333,147.9167,16.47,4.97
77,At-Bashi,87,KG,1619822617,74,41.1702,75.8106,49.87,1.66
78,Cape Town,0,ZA,1619822617,77,-33.9258,18.4232,57.99,10.36
79,Castro,24,BR,1619822325,91,-24.7911,-50.0119,52.9,7.02
80,Kavaratti,11,IN,1619822618,75,10.5669,72.642,83.84,8.16
81,Wanxian,3,CN,1619822618,79,30.8039,108.3897,71.71,2.8
82,Yar-Sale,89,RU,1619822618,95,66.8333,70.8333,15.46,9.78
83,Kharabali,100,RU,1619822619,95,47.4196,47.2568,54.0,12.44
84,Saint-Joseph,23,RE,1619822619,73,-21.3667,55.6167,77.0,5.75
85,Nabire,48,ID,1619822619,80,-3.3667,135.4833,79.27,2.46
86,Dikson,88,RU,1619822620,96,73.5069,80.5464,7.03,9.69
87,Lompoc,40,US,1619822398,67,34.6391,-120.4579,69.01,11.5
88,Leh,73,IN,1619822620,49,34.1667,77.5833,37.58,1.39
89,Padang,40,ID,1619822405,100,-0.9492,100.3543,75.2,1.14
90,Codrington,100,AU,1619822620,46,-38.2667,141.9667,63.63,12.44
91,San Vicente,2,AR,1619822621,58,-26.6167,-54.1333,59.11,2.35
92,Sioux Lookout,40,CA,1619822535,24,50.1001,-91.917,53.6,10.36
93,Wamba,100,NG,1619822621,49,8.9333,8.6,83.64,0.49
94,Kapaa,90,US,1619822622,65,22.0752,-159.319,78.8,13.8
95,Nikolskoye,0,RU,1619822622,75,59.7035,30.7861,33.8,2.24
96,Yellowknife,90,CA,1619822623,80,62.456,-114.3525,35.01,11.5
97,Volosovo,0,RU,1619822623,75,59.4333,29.4833,33.8,2.24
98,Bredasdorp,0,ZA,1619822623,87,-34.5322,20.0403,44.6,2.3
99,Lesosibirsk,6,RU,1619822623,94,58.2358,92.4828,36.12,6.42
100,Rabat,40,MA,1619822624,100,33.9911,-6.8401,57.99,4.61
101,Olinda,40,BR,1619822624,69,-8.0089,-34.8553,78.8,12.66
102,Saint-Philippe,40,RE,1619822625,73,-21.3585,55.7679,77.0,5.75
103,Ushtobe,100,KZ,1619822625,74,45.2514,77.9838,54.97,16.71
104,Killybegs,60,IE,1619822625,74,54.6333,-8.45,41.14,6.89
105,Springdale,1,US,1619822374,34,36.1867,-94.1288,78.8,1.97
106,Rosetta,0,EG,1619822626,56,31.4044,30.4164,69.8,3.44
107,Miraflores,75,MX,1619822626,46,19.2167,-98.8083,77.0,13.8
108,Biryukove,0,UA,1619822627,94,47.9563,39.7384,53.6,2.24
109,Dingle,98,PH,1619822627,73,10.9995,122.6711,79.61,5.32
110,Barnstaple,51,GB,1619822627,84,51.0802,-4.0581,42.01,5.12
111,Kieta,63,PG,1619822627,74,-6.2167,155.6333,83.3,4.29
112,Wattegama,20,LK,1619822628,100,6.7989,81.4808,75.2,1.14
113,Kailua,90,US,1619822628,65,21.4022,-157.7394,82.4,12.66
114,Jiwani,98,PK,1619822628,50,25.05,61.7417,85.44,8.3
115,South Kazakhstan Region,9,KZ,1619822629,45,43.0,68.0,57.69,11.05
116,Linhares,54,BR,1619822629,75,-19.3911,-40.0722,70.97,7.4
117,Ghanzi,16,BW,1619822629,43,-21.5667,21.7833,62.1,11.81
118,Maniitsoq,20,GL,1619822630,76,65.4167,-52.9,35.02,3.6
119,Iqaluit,90,CA,1619822630,75,63.7506,-68.5145,35.6,16.11
120,Dzhebariki-Khaya,100,RU,1619822630,97,62.2167,135.8,34.63,1.92
121,Cutro,99,IT,1619822631,42,39.0353,16.9819,70.0,8.52
122,Saint George,1,US,1619822504,9,37.1041,-113.5841,93.0,10.36
123,Teya,100,RU,1619822631,91,60.3778,92.6267,35.78,12.62
124,Krasnosel'kup,100,RU,1619822631,92,65.7,82.4667,31.39,12.77
