City ID,City,Cloudiness,Country,Date,Humidity,Lat,Lng,Max Temp,Wind Speed
0,Eureka,47,US,1619912976,73,40.8021,-124.1637,55.99,7.0
1,Taoudenni,22,ML,1619912977,30,22.6783,-3.9836,86.58,13.18
2,Yangi Marg`ilon,31,UZ,1619912613,82,40.4272,71.7189,60.8,6.91
3,George,0,ZA,1619912977,93,-33.963,22.4617,48.2,4.61
4,Ushuaia,40,AR,1619912550,70,-54.8,-68.3,39.2,4.61
5,Majene,56,ID,1619912878,80,-3.5403,118.9707,79.92,5.14
6,Nome,90,US,1619912956,68,64.5011,-165.4064,26.6,10.36
7,Assiniboia,76,CA,1619912978,28,49.6334,-105.9845,68.0,16.11
8,Zhangye,100,CN,1619912978,31,38.9342,100.4517,62.53,13.0
9,New Norfolk,100,AU,1619912978,70,-42.7826,147.0587,64.0,2.39
10,Hermanus,43,ZA,1619912978,67,-34.4187,19.2345,61.0,8.01
11,Albany,46,US,1619912619,50,42.6001,-73.9662,54.0,4.21
12,Iskateley,100,RU,1619912979,92,67.6803,53.1512,30.47,23.29
13,Atuona,2,PF,1619912916,68,-9.8,-139.0333,79.39,6.82
14,Rikitea,93,PF,1619912979,80,-23.1203,-134.9692,75.67,8.52
15,Pinsk,100,BY,1619912979,92,52.1229,26.0951,48.99,11.41
16,Puerto Ayora,96,EC,1619912563,89,-0.7393,-90.3518,77.0,4.0
17,Kiryat Gat,1,IL,1619912980,65,31.61,34.7642,71.01,3.49
18,Alofi,22,NU,1619912693,83,-19.0595,-169.9187,82.4,8.05
19,Pisco,0,PE,1619912567,73,-13.7,-76.2167,69.8,10.36
20,Lushoto,73,TZ,1619912980,95,-4.7833,38.2833,58.17,2.95
21,Bluff,60,NZ,1619912981,76,-46.6,168.3333,57.0,7.0
22,Coyhaique,90,CL,1619912981,93,-45.5752,-72.0662,42.8,6.91
23,Lloydminster,75,CA,1619912834,29,53.2835,-110.0016,59.0,19.57
24,Talcahuano,90,CL,1619912981,94,-36.7167,-73.1167,55.4,4.61
25,Hilo,1,US,1619912590,61,19.7297,-155.09,84.2,13.8
26,Gudalur,90,IN,1619912982,93,9.6833,77.2667,73.36,0.54
27,Mahébourg,40,MU,1619912594,94,-20.4081,57.7,73.4,3.44
28,Manali,20,IN,1619912982,89,13.1667,80.2667,84.99,3.44
29,Port Alfred,0,ZA,1619912539,65,-33.5906,26.891,60.73,5.79
30,Neijiang,97,CN,1619912983,75,29.5835,105.0622,76.19,5.14
31,Basti,9,IN,1619912984,42,26.8,82.7167,80.44,9.86
32,Tsiroanomandidy,56,MG,1619912985,93,-18.7667,46.0333,63.84,1.7
33,Butaritari,99,KI,1619912425,74,3.0707,172.7902,83.1,10.4
34,Havelock,1,US,1619912985,55,34.8791,-76.9013,64.0,3.0
35,Khatanga,62,RU,1619912985,92,71.9667,102.5,25.12,2.98
36,Qaqortoq,20,GL,1619912986,24,60.7167,-46.0333,44.6,39.12
37,Wuning,8,CN,1619912986,80,29.2589,120.2311,67.5,3.94
38,Itarema,99,BR,1619912845,83,-2.9248,-39.9167,77.43,4.79
39,Veselynove,96,UA,1619912987,83,47.3567,31.2349,57.0,8.16
40,Baykit,99,RU,1619912987,87,61.67,96.37,35.28,4.76
41,Clyde River,1,CA,1619912459,100,70.4692,-68.5914,19.4,0.34
42,Hithadhoo,84,MV,1619912722,71,-0.6,73.0833,83.77,4.85
43,Mataura,21,NZ,1619912554,76,-46.1927,168.8643,57.0,7.0
44,Cape Town,0,ZA,1619912303,93,-33.9258,18.4232,59.0,2.3
45,Saldanha,2,ZA,1619912760,67,-33.0117,17.9442,57.2,5.75
46,Avera,1,US,1619912644,38,33.194,-82.5271,77.0,3.24
47,Mar del Plata,0,AR,1619912700,82,-38.0023,-57.5575,61.0,3.44
48,Yellowknife,20,CA,1619912602,59,62.456,-114.3525,35.01,6.91
49,Khāsh,74,IR,1619912988,69,28.2211,61.2158,60.8,1.41
50,Castro,62,BR,1619912988,96,-24.7911,-50.0119,55.78,5.61
51,Qaanaaq,84,GL,1619912868,64,77.484,-69.3632,30.29,6.46
52,Nānākuli,75,US,1619912989,54,21.3906,-158.1547,84.2,17.27
53,Nyuksenitsa,20,RU,1619912989,80,60.4128,44.2397,27.21,4.72
54,Newala,10,TZ,1619912989,97,-10.9431,39.2787,65.19,2.24
55,Vaini,40,TO,1619912989,74,-21.2,-175.2,80.6,12.66
56,Gharo,75,PK,1619912990,51,24.7424,67.5856,84.2,8.05
57,São Filipe,8,CV,1619912990,72,14.8961,-24.4956,72.72,10.74
58,Tucuruí,99,BR,1619912990,93,-3.7661,-49.6725,74.8,2.44
59,Dali,44,CN,1619912991,71,25.7,100.1833,60.46,3.42
60,Busselton,5,AU,1619912991,98,-33.65,115.3333,55.0,3.49
61,Ilulissat,14,GL,1619912821,45,69.2167,-51.1,44.6,14.97
62,Barrow,90,US,1619912718,79,71.2906,-156.7887,21.2,11.5
63,Alyangula,4,AU,1619912991,78,-13.8483,136.4192,82.4,8.05
64,Shaowu,4,CN,1619912991,63,27.3409,117.4831,75.79,1.88
65,Tiksi,100,RU,1619912526,97,71.6872,128.8694,23.63,3.96
66,Bredasdorp,71,ZA,1619912679,87,-34.5322,20.0403,48.2,4.61
67,Kawambwa,100,ZM,1619912992,96,-9.7915,29.0791,62.87,2.98
68,Balkhash,88,KZ,1619912992,38,46.844,74.9804,47.68,22.28
69,Punta Arenas,40,CL,1619912622,87,-53.15,-70.9167,41.0,4.61
70,Coahuayana Viejo,1,MX,1619912993,57,18.7333,-103.6833,82.4,11.5
71,Saint-Philippe,0,RE,1619912534,73,-21.3585,55.7679,73.99,5.75
72,Ust'-Koksa,40,RU,1619912993,77,50.2696,85.6108,24.89,1.01
73,Atambua,98,ID,1619912993,72,-9.1061,124.8925,76.39,4.88
74,Jamestown,90,US,1619912621,35,42.097,-79.2353,55.4,20.71
75,Wonthaggi,88,AU,1619912994,63,-38.6044,145.5913,71.01,7.23
76,Vuktyl,32,RU,1619912994,90,63.8567,57.3094,32.4,10.18
77,Port Elizabeth,0,ZA,1619912994,76,-33.918,25.5701,51.8,6.91
78,Bengkulu,69,ID,1619912813,86,-3.8004,102.2655,76.1,4.12
79,Kumul,100,CN,1619912625,26,42.8,93.45,60.37,17.09
80,Kapaa,20,US,1619912620,69,22.0752,-159.319,80.6,16.11
81,Hailar,100,CN,1619912995,36,49.2,119.7,48.31,14.16
82,Longyearbyen,20,SJ,1619912541,73,78.2186,15.6401,17.6,12.66
83,Coquimbo,0,CL,1619912596,94,-29.9533,-71.3436,57.2,4.61
84,Elizabeth City,1,US,1619912995,32,36.2946,-76.2511,66.2,9.22
85,Pangoa,44,PE,1619912996,83,-12.1167,-73.0,70.59,2.17
86,Abancay,47,PE,1619912996,82,-13.6339,-72.8814,56.91,4.12
87,Hobyo,98,SO,1619912623,66,5.3505,48.5268,83.79,9.91
88,Saskylakh,100,RU,1619912996,92,71.9167,114.0833,33.01,1.79
89,Touros,20,BR,1619912996,88,-5.1989,-35.4608,77.0,3.44
90,Zhigansk,100,RU,1619912997,96,66.7697,123.3711,32.38,5.82
91,Mahibadhoo,23,MV,1619912627,66,3.7833,72.9667,83.03,3.53
92,Tasiilaq,2,GL,1619912701,86,65.6145,-37.6368,26.6,2.37
93,Harper,100,LR,1619912739,81,4.375,-7.7169,80.46,7.45
94,Colares,3,PT,1619912998,71,38.7992,-9.4469,55.0,11.41
95,Dingle,37,PH,1619912629,68,10.9995,122.6711,84.36,11.03
96,Joshīmath,87,IN,1619912999,58,30.5667,79.5667,55.24,7.56
97,Berlevåg,100,NO,1619912999,70,70.8578,29.0864,32.18,14.88
98,Padang,75,ID,1619912697,94,-0.9492,100.3543,77.0,2.3
99,Nova Olímpia,85,BR,1619912999,80,-14.7972,-57.2881,76.03,2.86
100,Ribeira Grande,99,PT,1619913000,92,38.5167,-28.7,60.58,13.13
101,Chui,0,UY,1619913000,91,-33.6971,-53.4616,62.28,6.85
102,Nishihara,40,JP,1619913001,68,26.1842,127.7558,75.2,8.05
103,Ponta do Sol,91,PT,1619912611,66,32.6667,-17.1,57.0,1.99
104,Talnakh,53,RU,1619912624,96,69.4865,88.3972,15.3,0.78
105,Sarankhola,57,BD,1619913003,85,22.3082,89.7897,78.06,3.98
106,Iranshahr,89,IR,1619913004,50,27.2025,60.6848,74.07,2.8
107,Brae,20,GB,1619912538,75,60.3964,-1.353,41.0,3.44
108,Wanaka,0,NZ,1619913004,43,-44.7,169.15,54.7,0.74
109,Xinxiang,100,CN,1619913004,21,35.3089,113.8672,60.3,10.04
110,Salalah,20,OM,1619912622,79,17.0151,54.0924,84.2,3.44
111,Vrangel',64,RU,1619913005,68,42.7297,133.0839,48.13,8.84
112,Maragogi,98,BR,1619913005,86,-9.0122,-35.2225,76.57,7.36
113,Klaksvík,90,FO,1619912943,80,62.2266,-6.589,35.6,3.44
114,Lata,39,PT,1619912799,84,40.1629,-8.3327,53.01,4.0
115,Faya,0,SA,1619913006,39,18.3851,42.4509,66.2,2.93
116,Hasaki,40,JP,1619912650,40,35.7333,140.8333,68.0,16.11
117,Kruisfontein,0,ZA,1619912775,75,-34.0033,24.7314,53.53,4.29
118,Sioux Lookout,75,CA,1619913006,30,50.1001,-91.917,68.0,8.05
119,Havre-St-Pierre,75,CA,1619912913,87,50.2334,-63.5986,39.2,16.11
120,Esperance,0,AU,1619912699,81,-33.8667,121.9,50.0,12.66
121,Vao,100,NC,1619912870,66,-22.6667,167.4833,74.84,24.76
122,Fayaoué,100,NC,1619912980,75,-20.65,166.5333,77.77,22.57
123,Narsaq,20,GL,1619913007,24,60.9167,-46.05,44.6,39.12
124,Aksu,86,CN,1619913008,25,41.1231,80.2644,68.16,2.51
125,Bagdarin,48,RU,1619913008,67,54.4333,113.6,38.84,4.0
126,Mezen',96,RU,1619913008,61,65.8522,44.24,26.35,15.5
127,Mont-Dore,75,NC,1619913008,65,-22.2833,166.5833,78.8,11.5
128,Cockburn Town,55,TC,1619912647,74,21.4612,-71.1419,79.0,14.9
129,Egvekinot,100,RU,1619913009,67,66.3167,-179.1667,19.22,2.35
130,Davlekanovo,90,RU,1619913009,82,54.2215,55.0343,51.8,11.18
131,Thompson,90,CA,1619912603,86,55.7435,-97.8558,23.0,9.22
132,Bahía Honda,46,CU,1619913010,75,22.9036,-83.1592,79.18,7.67
133,Bethel,1,US,1619912746,25,41.3712,-73.414,59.0,5.75
134,Beira,96,MZ,1619913010,86,-19.8436,34.8389,70.63,15.64
135,Moerai,31,PF,1619913010,63,-22.4333,-151.3333,74.79,13.89
136,Carnarvon,100,AU,1619912724,72,-24.8667,113.6333,66.2,9.22
137,Mitú,85,CO,1619913001,98,1.1983,-70.1733,71.35,2.24
138,Portland,90,US,1619912595,48,45.5234,-122.6762,61.0,6.31
139,Manjo,100,CM,1619913011,96,4.8428,9.8217,70.59,3.47
140,Ţahţā,0,EG,1619912780,10,26.7693,31.5021,78.8,6.91
141,Lagoa,100,PT,1619912827,88,39.05,-27.9833,60.75,19.98
142,Fartura,30,BR,1619913011,76,-23.3883,-49.51,64.49,7.45
143,Santa Maria,0,BR,1619912976,82,-29.6842,-53.8069,64.4,2.3
144,Tuktoyaktuk,75,CA,1619912624,86,69.4541,-133.0374,15.8,5.75
145,Severo-Kuril'sk,100,RU,1619912623,97,50.6789,156.125,35.6,23.29
146,Deputatsky,98,RU,1619913012,92,69.3,139.9,22.95,4.41
147,Uyemskiy,75,RU,1619913012,93,64.4743,40.8524,26.6,4.47
148,Byron Bay,75,AU,1619913012,64,-28.65,153.6167,73.4,12.66
149,Dickinson,75,US,1619913013,78,29.4608,-95.0513,77.0,14.97
150,Chieri,90,IT,1619913013,100,45.014,7.8223,54.0,1.41
151,Geraldton,72,AU,1619912521,66,-28.7667,114.6,50.0,6.91
152,Segezha,68,RU,1619913013,79,63.7415,34.3222,28.33,10.13
153,Sokolo,64,ML,1619913014,32,14.7328,-6.1219,91.36,7.65
154,Margate,30,GB,1619913014,73,51.3813,1.3862,46.0,1.99
155,Jacareacanga,59,BR,1619913014,97,-6.2222,-57.7528,73.54,1.92
156,Lavrentiya,46,RU,1619912761,72,65.5833,-171.0,23.02,2.57
157,Meulaboh,80,ID,1619913015,88,4.1363,96.1285,77.74,3.2
158,Kortkeros,0,RU,1619913015,74,61.8106,51.5806,32.0,8.95
159,Yambio,100,SS,1619913015,95,4.5721,28.3955,67.89,4.23
160,Sitka,90,US,1619912865,71,57.0531,-135.33,46.4,6.91
161,Phek,53,IN,1619913016,88,25.6667,94.5,53.56,1.59
162,Omboué,87,GA,1619913016,92,-1.5746,9.2618,78.1,4.97
163,Lompoc,90,US,1619913017,82,34.6391,-120.4579,62.01,18.41
164,Fortuna,90,US,1619912533,76,40.5982,-124.1573,55.99,17.27
165,Saint George,1,US,1619912914,7,37.1041,-113.5841,91.4,28.77
166,Safita,0,SY,1619913017,82,34.8205,36.1153,64.99,6.91
167,Faanui,53,PF,1619913017,66,-16.4833,-151.75,80.74,2.86
168,Nemuro,75,JP,1619912633,75,43.3236,145.575,41.0,11.5
169,George Town,20,MY,1619912627,94,5.4112,100.3354,78.01,4.56
170,Bambous Virieux,40,MU,1619912624,94,-20.3428,57.7575,73.99,3.44
171,Nanortalik,51,GL,1619912847,68,60.1432,-45.2371,36.32,13.42
172,Leningradskiy,100,RU,1619913018,90,69.3833,178.4167,17.35,20.24
173,Ahipara,0,NZ,1619912970,52,-35.1667,173.1667,64.06,8.32
174,Zhanakorgan,41,KZ,1619913019,33,43.9098,67.2495,58.5,15.03
175,Tagcatong,17,PH,1619913019,65,9.0022,125.2569,83.39,5.59
176,Pyu,2,MM,1619913019,88,18.4833,96.4333,75.7,2.21
177,East London,0,ZA,1619912551,66,-33.0153,27.9116,60.42,5.48
178,Huarmey,50,PE,1619913020,83,-10.0681,-78.1522,68.99,9.48
179,Laas,75,IT,1619912565,100,46.6166,10.7002,51.01,3.44
180,Xining,27,CN,1619913020,35,36.6167,101.7667,54.57,2.42
181,Avarua,75,CK,1619912599,74,-21.2078,-159.775,80.6,11.5
182,Tegul'det,40,RU,1619913020,89,57.3064,88.1667,35.01,8.37
183,Ancud,0,CL,1619912590,87,-41.8697,-73.8203,53.01,6.91
184,Saint-Pierre,0,RE,1619913021,73,-21.3393,55.4781,73.4,5.75
185,Arraial do Cabo,100,BR,1619912633,68,-22.9661,-42.0278,72.99,12.44
186,Farmington,1,US,1619912811,10,36.7281,-108.2187,84.2,11.5
187,Bahía Blanca,100,AR,1619913021,54,-38.7196,-62.2724,64.22,6.53
188,Kloulklubed,90,PW,1619913021,89,7.0419,134.2556,80.6,6.91
189,Codrington,100,AU,1619912631,75,-38.2667,141.9667,62.64,10.49
190,Galveston,40,US,1619913022,83,29.3669,-94.9669,75.2,20.71
191,Burbank,1,US,1619912895,43,34.1808,-118.309,78.8,10.36
192,Bandar-e Lengeh,52,IR,1619913022,57,26.5579,54.8807,80.4,3.09
193,Westport,21,US,1619913023,35,41.1415,-73.3579,59.0,5.48
194,Iberia,90,US,1619913023,88,29.9502,-91.7507,75.2,8.05
195,Birao,90,CF,1619913023,35,10.2849,22.7882,82.09,4.85
196,Mikhaylovka,20,RU,1619913023,93,50.06,43.2379,46.99,1.01
197,Kudahuvadhoo,28,MV,1619912579,68,2.6708,72.8944,82.74,1.36
198,Kadhan,80,PK,1619913024,54,24.481,68.9859,81.97,7.58
199,Kavieng,33,PG,1619912783,69,-2.5744,150.7967,84.09,3.02
200,Sherpur,2,BD,1619913024,80,25.0188,90.0175,73.87,7.72
201,Buraidah,20,SA,1619913024,28,26.326,43.975,82.4,13.8
202,Taloqan,95,AF,1619913025,68,36.7361,69.5345,66.09,3.38
203,Finschhafen,12,PG,1619913025,67,-6.6024,147.8681,84.11,7.18
204,Fairbanks,40,US,1619912952,45,64.8378,-147.7164,44.01,4.61
205,Mananjary,61,MG,1619913025,94,-21.2167,48.3333,73.54,6.46
206,Alice Springs,15,AU,1619912522,42,-23.7,133.8833,73.99,12.12
207,Kushiro,75,JP,1619913026,75,42.975,144.3747,39.2,12.66
208,Sørland,100,NO,1619913026,62,67.667,12.6934,35.8,11.77
209,Gravdal,100,NO,1619913027,63,68.1214,13.5031,34.39,7.0
210,Kavaratti,22,IN,1619912643,74,10.5669,72.642,84.13,3.58
211,Necochea,66,AR,1619912471,77,-38.5473,-58.7368,57.99,7.0
212,Inhambane,82,MZ,1619913027,70,-23.865,35.3833,71.13,14.52
213,Oranjemund,0,NA,1619912751,32,-28.55,16.4333,70.43,15.99
214,Bathsheba,20,BB,1619912597,65,13.2167,-59.5167,78.8,14.97
215,Balsas,99,BR,1619912945,66,-7.5325,-46.0356,78.35,2.37
216,Naze,40,JP,1619912892,49,28.3667,129.4833,69.8,10.36
217,Kiama,99,AU,1619913028,84,-34.6833,150.8667,66.0,1.01
218,Da Lat,19,VN,1619913028,84,11.9465,108.4419,64.2,1.34
219,Pevek,77,RU,1619912770,83,69.7008,170.3133,15.49,9.26
220,Hobart,0,AU,1619912529,63,-42.8794,147.3294,64.0,6.91
221,Prince Rupert,90,CA,1619913029,81,54.3161,-130.3201,50.0,4.61
222,Nyurba,100,RU,1619912966,99,63.2842,118.3319,33.73,2.95
223,Saint Paul Harbor,90,US,1619912522,66,57.79,-152.4072,46.4,12.66
224,Hong Kong,93,HK,1619912838,87,22.2855,114.1577,80.01,1.88
225,Cayenne,0,GF,1619912976,89,4.9333,-52.3333,81.0,2.3
226,San Patricio,75,US,1619912625,94,28.017,-97.5169,73.99,4.61
227,Cuautepec,18,MX,1619913030,58,16.7,-99.0,83.73,10.0
228,Hualmay,53,PE,1619913030,85,-11.0964,-77.6139,67.78,8.32
229,Okhotsk,75,RU,1619913030,78,59.3833,143.3,35.78,1.92
230,Maniitsoq,0,GL,1619913031,66,65.4167,-52.9,36.25,9.01
231,Senneterre,90,CA,1619913031,100,48.3835,-77.2328,33.8,9.22
232,Yerbogachën,44,RU,1619912921,86,61.2767,108.0108,37.04,4.97
233,Répcelak,0,HU,1619913031,63,47.4211,17.018,64.4,4.61
234,Luena,95,AO,1619913032,97,-11.7833,19.9167,61.07,2.04
235,Nikolskoye,0,RU,1619912676,75,59.7035,30.7861,37.4,2.24
236,Imeni Poliny Osipenko,98,RU,1619913032,64,52.4201,136.4853,39.6,13.09
237,Christchurch,1,NZ,1619913032,55,-43.5333,172.6333,64.0,6.91
238,Port-Gentil,40,GA,1619912869,94,-0.7193,8.7815,80.6,3.44
239,Cherskiy,42,RU,1619912629,76,68.75,161.3,19.89,0.74
240,Rome,75,US,1619912878,40,43.2128,-75.4557,51.8,4.61
241,Rassvet,3,RU,1619913033,86,46.8333,40.75,52.77,4.21
242,Mossamedes,19,AO,1619912658,78,-15.1961,12.1522,76.53,5.3
243,Norman Wells,20,CA,1619912632,34,65.282,-126.8329,48.2,13.8
244,Solnechnyy,100,RU,1619913033,80,50.7214,136.6319,35.96,9.91
245,Broken Hill,0,AU,1619913034,49,-31.95,141.4333,69.8,10.36
246,Patan,75,NP,1619913034,100,27.6667,85.3333,60.8,5.75
247,Zabaykal'sk,100,RU,1619913035,42,49.6333,117.3167,47.28,13.65
248,Paján,83,EC,1619913035,91,-1.5667,-80.4167,73.26,2.59
249,Dryden,40,CA,1619913035,28,49.7833,-92.7503,68.0,5.75
250,Aklavik,90,CA,1619912741,74,68.2191,-135.0107,26.6,6.91
251,Dawlatabad,99,AF,1619913035,37,36.4141,64.9053,69.33,3.38
252,Dolzhanskaya,61,RU,1619913036,88,46.6311,37.8039,55.42,8.01
253,Torbay,90,CA,1619913036,81,47.6666,-52.7314,41.0,27.63
254,Maksatikha,70,RU,1619913037,85,57.797,35.8825,35.1,3.62
255,Yantal',100,RU,1619913037,82,56.8471,105.2542,40.46,2.3
256,Vilyuysk,100,RU,1619913037,99,63.7553,121.6247,35.65,5.21
257,Lüderitz,0,NA,1619913037,25,-26.6481,15.1594,76.35,20.04
258,Manicoré,0,BR,1619913038,94,-5.8092,-61.3003,77.0,2.3
259,Surgut,0,RU,1619913038,69,61.25,73.4167,35.6,11.18
260,Great Falls,75,US,1619913038,26,47.5002,-111.3008,68.0,13.8
261,Korla,77,CN,1619913039,23,41.7597,86.1469,64.27,17.2
262,Araouane,16,ML,1619912542,26,18.9048,-3.5265,87.35,4.47
263,Lorengau,89,PG,1619913039,75,-2.0226,147.2712,82.72,1.32
264,Esil,62,KZ,1619913040,50,51.9556,66.4042,47.93,13.15
265,Chokurdakh,64,RU,1619912574,87,70.6333,147.9167,20.95,4.41
266,Porto Walter,83,BR,1619913040,78,-8.2686,-72.7439,75.56,1.74
267,Lebu,100,CL,1619913040,94,-37.6167,-73.65,55.36,14.74
268,Vardø,96,NO,1619912716,68,70.3705,31.1107,33.35,15.43
269,Provideniya,47,RU,1619912805,54,64.3833,-173.3,27.01,4.9
270,Sibu,20,MY,1619912989,88,2.3,111.8167,77.0,3.44
271,San Quintín,95,MX,1619912616,71,30.4833,-115.95,64.62,17.0
272,Santa Maria da Vitória,100,BR,1619913041,58,-13.3947,-44.1886,76.66,8.08
273,Riyadh,0,SA,1619913041,22,24.6877,46.7219,78.8,3.44
274,São Miguel do Araguaia,100,BR,1619913043,70,-13.275,-50.1628,75.63,4.68
275,Kambove,100,CD,1619913044,95,-10.8764,26.5969,62.13,2.75
276,Tuatapere,4,NZ,1619913044,75,-46.1333,167.6833,57.0,5.99
277,Samaná,20,DO,1619913044,83,19.2056,-69.3369,78.8,9.31
278,Altamont,75,US,1619913045,34,42.2068,-121.7372,63.0,23.02
279,Beidao,100,CN,1619913045,70,34.5686,105.8933,66.87,2.44
280,Valdivia,90,CL,1619913046,100,-39.8142,-73.2459,53.6,4.61
281,Wanning,81,CN,1619913046,80,18.8003,110.3967,81.25,5.21
282,Monte Alegre,100,BR,1619913047,96,-2.0078,-54.0692,72.16,3.06
283,Sars,100,RU,1619913047,93,56.5502,57.1366,46.87,11.05
284,Scottsbluff,1,US,1619912913,17,41.8666,-103.6672,84.2,9.22
285,Flinders,100,AU,1619912631,84,-34.5833,150.8552,66.0,1.01
286,Saravan,99,AM,1619913047,84,39.7196,45.6483,46.2,4.34
287,Pithorāgarh,10,IN,1619913048,60,29.5833,80.2167,55.33,3.6
288,Aksarayskiy,99,RU,1619912788,88,46.7924,48.0119,55.4,4.47
289,Matara,98,LK,1619913048,89,5.9485,80.5353,77.23,2.66
290,Jumla,67,NP,1619913048,82,29.2747,82.1838,47.84,3.94
291,Isangel,90,VU,1619912520,78,-19.55,169.2667,78.8,9.22
292,Constitución,100,CL,1619912527,93,-35.3333,-72.4167,55.02,13.02
293,Ormond Beach,1,US,1619913049,69,29.2858,-81.0559,77.0,9.22
294,Hofn,100,IS,1619912662,69,64.2539,-15.2082,36.14,15.28
295,Port Hardy,40,CA,1619912777,66,50.6996,-127.4199,51.8,13.8
296,Trairi,100,BR,1619912945,87,-3.2778,-39.2689,75.87,3.83
297,São João da Barra,95,BR,1619913049,75,-21.6403,-41.0511,71.74,10.0
298,Red Bluff,1,US,1619913049,24,40.1785,-122.2358,84.2,10.36
299,Nhulunbuy,75,AU,1619913050,70,-12.2333,136.7667,84.2,13.8
300,San Juan,95,AR,1619913040,39,-31.5375,-68.5364,70.16,12.41
301,Nouadhibou,66,MR,1619912975,64,20.931,-17.0347,68.0,17.27
302,Poroshkovo,100,UA,1619913052,94,48.6683,22.7533,55.69,4.63
303,Acapulco de Juárez,75,MX,1619912767,70,16.8634,-99.8901,84.2,12.66
304,Champerico,90,GT,1619913052,88,14.3,-91.9167,77.0,8.08
305,Lázaro Cárdenas,99,MX,1619913052,65,17.9583,-102.2,81.18,11.03
306,High Rock,75,BS,1619913053,69,26.6208,-78.2833,82.4,3.44
307,Ratnagiri,82,IN,1619912627,74,16.9833,73.3,83.84,5.93
308,Ishigaki,40,JP,1619912884,100,24.3448,124.1572,75.2,2.3
309,La Primavera,33,CO,1619913053,77,5.4906,-70.4092,78.64,1.1
310,Igrim,100,RU,1619913053,89,63.1906,64.4162,43.65,10.36
311,Luoyang,100,CN,1619913054,33,34.6836,112.4536,59.74,15.68
312,Dunedin,5,NZ,1619913054,53,-45.8742,170.5036,60.12,10.69
313,Lisala,79,CD,1619913055,96,2.15,21.5167,69.04,2.17
314,Werder,100,DE,1619913055,74,52.3787,12.934,48.99,2.24
315,Bubaque,13,GW,1619912626,71,11.2833,-15.8333,78.17,15.3
316,Kailua,40,US,1619913055,51,21.4022,-157.7394,84.2,17.27
317,Oriximiná,100,BR,1619913056,95,-1.7656,-55.8661,74.23,3.67
318,Alleroy,0,RU,1619913056,94,43.21,46.28,53.6,4.47
319,Erdenet,72,MN,1619913056,81,49.0333,104.0833,39.63,3.18
320,Pangnirtung,75,CA,1619913056,73,66.1451,-65.7125,34.75,6.26
321,Salina Cruz,97,MX,1619913057,68,16.1667,-95.2,84.87,13.0
322,Viedma,100,AR,1619913025,48,-40.8135,-62.9967,64.89,8.59
323,Vestmanna,90,FO,1619913057,80,62.1564,-7.1664,35.6,3.44
324,Niquelândia,100,BR,1619913057,73,-14.4739,-48.4597,70.83,3.8
325,Aktobe,0,KZ,1619913058,53,50.2797,57.2072,44.6,6.71
326,Saquena,82,PE,1619913058,98,-4.6667,-73.5167,72.55,3.02
327,Arrondissement de Limoges,0,FR,1619913058,81,45.75,1.3333,41.0,5.75
328,Beringovskiy,96,RU,1619912621,79,63.05,179.3167,21.33,13.22
329,Porto-Novo,40,BJ,1619913059,84,6.4965,2.6036,84.2,11.5
330,Tomatlán,0,MX,1619913059,27,19.9333,-105.25,85.44,10.49
331,Mocuba,79,MZ,1619913059,98,-16.8392,36.9856,69.17,3.69
332,Princeton,1,US,1619913060,65,25.5384,-80.4089,84.2,6.91
333,Hurghada,0,EG,1619913060,14,27.2574,33.8129,84.2,3.44
334,Khor,100,RU,1619913060,56,47.8861,134.9464,46.49,15.17
335,Sawtell,75,AU,1619913060,94,-30.3833,153.1,64.4,6.91
336,Pozo Colorado,0,PY,1619913061,48,-23.4923,-58.7972,73.26,5.41
337,Ridgecrest,1,US,1619913061,8,35.6225,-117.6709,91.4,37.98
338,Sawākin,89,SD,1619913062,67,19.1059,37.3321,83.03,1.95
339,Parkes,100,AU,1619913062,56,-33.1333,148.1833,69.01,3.0
340,Beloha,99,MG,1619912853,79,-25.1667,45.05,68.52,5.03
341,Domoni,22,KM,1619913062,85,-12.2569,44.5319,79.2,3.29
342,Bhatkal,23,IN,1619913063,83,13.9667,74.5667,82.15,2.62
343,Bria,73,CF,1619913063,83,6.5423,21.9863,70.16,3.96
344,Hervey Bay,75,AU,1619913063,83,-25.2986,152.8535,75.99,12.66
345,Nabire,83,ID,1619913064,73,-3.3667,135.4833,82.44,1.54
346,Ostrovnoy,100,RU,1619912562,93,68.0531,39.5131,29.82,20.11
347,Baghdad,0,IQ,1619913064,35,33.3406,44.4009,73.4,3.44
348,Lake Charles,90,US,1619912908,78,30.2131,-93.2044,75.2,9.22
349,Mount Isa,2,AU,1619913065,41,-20.7333,139.5,78.8,11.5
350,Goderich,98,CA,1619913065,47,43.7501,-81.7165,53.6,17.27
351,São Sebastião,100,BR,1619913065,84,-23.76,-45.4097,69.91,7.56
352,Arlit,0,NE,1619913066,4,18.7369,7.3853,86.52,10.0
353,Pemba,75,MZ,1619913066,89,-12.974,40.5178,78.8,5.75
354,Sobolevo,100,RU,1619913066,76,54.4299,31.8996,42.89,3.78
355,Sorong,93,ID,1619913067,80,-0.8833,131.25,80.91,7.38
356,Yulara,34,AU,1619913067,42,-25.2406,130.9889,66.2,10.36
357,Gimli,15,CA,1619913067,75,50.6336,-96.9907,41.0,12.66
358,Isla Mujeres,75,MX,1619913067,65,21.2311,-86.731,84.2,17.27
359,Ruska Poliana,99,UA,1619913068,94,49.417,31.9201,55.99,7.78
360,Sarangani,97,PH,1619913068,73,5.4033,125.4636,83.34,18.9
361,Half Moon Bay,90,US,1619912670,87,37.4636,-122.4286,60.8,18.41
362,Xaçmaz,100,AZ,1619912864,94,41.4635,48.806,59.23,6.73
363,Itamaraju,64,BR,1619913068,91,-17.0392,-39.5311,65.75,3.13
364,Bauchi,53,NG,1619913069,25,10.5,10.0,84.65,2.59
365,Utiel,20,ES,1619913069,88,39.5667,-1.2,59.0,4.61
366,Labuhan,99,ID,1619912629,83,-6.8844,112.2051,79.66,7.94
367,Kahului,40,US,1619912604,58,20.8947,-156.47,84.2,19.57
368,Goulburn,100,AU,1619913070,88,-34.75,149.7167,57.99,2.66
369,Khasan,99,RU,1619913070,48,42.4308,130.6434,53.94,12.93
370,Ibrā’,43,OM,1619913070,60,22.6906,58.5334,74.28,3.11
371,Şarkîkaraağaç,40,TR,1619913071,40,38.0794,31.3664,60.4,2.19
372,Rūdbār,78,AF,1619913071,60,30.15,62.6,70.18,6.33
373,Sungai Besar,40,MY,1619913071,94,3.6746,100.9867,75.2,1.14
374,Coro,85,VE,1619913072,81,11.4045,-69.6734,79.09,15.01
375,Soe,58,ID,1619913072,74,-9.8607,124.284,71.15,6.33
376,Henties Bay,16,NA,1619913072,91,-22.116,14.2845,60.01,2.21
377,Inyonga,100,TZ,1619913073,96,-6.7167,32.0667,64.45,3.67
378,Novopokrovka,0,UA,1619913073,58,49.8425,36.5477,51.8,5.3
379,Aktash,72,RU,1619913075,85,50.3,87.7333,12.79,4.54
380,Darnah,2,LY,1619913075,24,32.767,22.6367,81.55,8.48
381,Gillette,75,US,1619913069,24,44.2911,-105.5022,71.6,3.44
382,Kasulu,20,TZ,1619913075,94,-4.5767,30.1025,69.8,2.62
383,Khorinsk,100,RU,1619913076,79,52.1657,109.7726,40.75,6.6
384,Rantepao,88,ID,1619913076,86,-2.9701,119.8978,72.3,1.23
385,Carberry,40,CA,1619913077,24,49.8689,-99.3602,71.6,5.75
386,Kiruna,40,SE,1619913077,74,67.8557,20.2251,23.0,3.44
387,Mahina,20,PF,1619913077,58,-17.5065,-149.489,87.8,5.75
388,Udachny,100,RU,1619913078,99,66.4167,112.4,33.17,8.14
389,Preobrazheniye,65,RU,1619912768,59,42.9019,133.9064,49.71,2.35
390,Oussouye,0,SN,1619913078,88,12.485,-16.5469,75.2,4.61
391,Grindavik,75,IS,1619913078,60,63.8424,-22.4338,37.4,10.36
392,Ozinki,90,RU,1619913078,85,51.1786,49.6769,52.34,5.84
393,Uran,40,IN,1619913079,70,18.8769,72.9397,86.0,5.61
394,Husavik,90,IS,1619913079,80,66.0449,-17.3389,33.8,8.05
395,Port Lincoln,100,AU,1619912795,71,-34.7333,135.8667,61.48,12.37
396,Barcelos,0,PT,1619913047,81,41.5388,-8.6151,51.01,4.07
397,Sheregesh,100,RU,1619913080,97,52.9209,87.9869,32.7,7.4
398,Franklin,20,US,1619913080,30,39.9667,-83.0166,68.0,11.5
399,Rundu,97,NA,1619913080,75,-17.9333,19.7667,67.1,2.57
400,Saint-Augustin,100,CA,1619912773,96,51.226,-58.6502,36.66,10.31
401,Camabatela,100,AO,1619913081,96,-8.1881,15.375,60.66,3.51
402,Bulgan,79,MN,1619913081,60,48.8125,103.5347,49.05,5.86
403,Olafsvik,66,IS,1619912726,71,64.8945,-23.7142,35.1,20.07
404,Simao,93,CN,1619912809,91,22.7886,100.9748,63.43,1.9
405,Richards Bay,36,ZA,1619912620,88,-28.783,32.0377,61.63,5.14
406,El Dorado,3,US,1619913082,38,38.7666,-120.5177,68.0,9.31
407,Qingquan,9,CN,1619913083,67,30.4511,115.2559,72.55,5.75
408,Yenagoa,94,NG,1619912889,94,4.9247,6.2642,77.29,4.5
409,Rājbirāj,20,NP,1619913083,58,26.5333,86.75,74.48,9.55
410,Atar,5,MR,1619913084,19,20.5169,-13.0499,83.08,4.25
411,Kirakira,100,SB,1619912806,76,-10.4544,161.9205,81.88,4.21
412,Vestmannaeyjar,63,IS,1619912656,65,63.4427,-20.2734,39.56,13.73
413,Truro,13,GB,1619913084,75,50.2653,-5.0544,42.8,3.44
414,Ukiah,1,US,1619913029,40,39.1502,-123.2078,73.4,11.5
415,Manta,0,EC,1619913004,65,-0.95,-80.7333,82.4,10.36
416,Mbanza-Ngungu,100,CD,1619913084,93,-5.25,14.8667,66.0,1.57
417,Mehamn,99,NO,1619913085,73,71.0357,27.8492,31.05,15.14
418,San Ignacio,20,BZ,1619913085,41,17.1561,-89.0714,96.8,6.91
419,Mangai,94,CD,1619913085,98,-4.05,19.5333,68.27,2.24
420,Yeniseysk,84,RU,1619913086,86,58.4497,92.1703,36.39,7.83
421,Kutum,68,SD,1619912625,18,14.2,24.6667,76.96,10.27
422,Departamento de Maldonado,20,UY,1619913086,82,-34.6667,-54.9167,64.99,6.91
423,Kutoarjo,76,ID,1619913086,100,-7.7169,109.9128,55.0,2.35
424,Kulhudhuffushi,55,MV,1619913086,71,6.6221,73.07,83.75,4.99
425,Ejido,100,VE,1619913087,95,8.5514,-71.2375,68.81,0.89
426,Kaeo,0,NZ,1619913087,66,-35.1,173.7833,66.99,5.99
427,Waipawa,1,NZ,1619913088,72,-41.4122,175.5153,57.99,9.22
428,Airai,73,TL,1619912632,67,-8.9266,125.4092,65.35,3.87
429,Ciudad Guayana,78,VE,1619913088,87,8.3533,-62.6528,79.0,1.99
430,Jining,48,CN,1619913089,26,35.405,116.5814,59.29,8.46
431,Davila,20,PH,1619913089,83,18.4726,120.5763,80.6,3.44
432,Pangody,100,RU,1619913089,89,65.85,74.4859,27.48,16.91
433,Aksay,0,RU,1619913090,87,47.26,39.87,53.6,4.47
434,Gilgit,60,PK,1619913090,53,35.9221,74.3087,60.69,2.51
435,Kānt,44,IN,1619913091,33,27.8,79.8,82.74,7.76
436,San Cristobal,75,VE,1619913091,94,7.7669,-72.225,77.0,3.44
437,Cururupu,89,BR,1619912665,94,-1.8283,-44.8683,73.76,1.9
438,Bagdogra,63,IN,1619913091,54,26.7,88.3167,75.58,3.09
439,Ambanja,5,MG,1619913092,92,-13.6833,48.45,73.87,3.4
440,Roald,46,NO,1619913092,81,62.5833,6.1333,37.4,12.66
441,Shache,48,CN,1619913092,24,38.4167,77.2406,66.69,12.68
442,Zyryanka,93,RU,1619913093,84,65.75,150.85,32.2,3.53
443,Mountain Home,90,US,1619913093,51,43.133,-115.6912,62.6,37.98
444,Monrovia,40,LR,1619912608,94,6.3005,-10.7969,78.8,11.25
445,Bokoro,85,TD,1619913094,36,12.3807,17.0568,86.95,4.23
446,Bariadi,70,TZ,1619913094,90,-2.8,33.9833,63.36,3.96
447,Karpathos,54,GR,1619913094,64,35.507,27.2132,68.0,6.91
448,Belyy Yar,0,RU,1619913095,61,53.6039,91.3903,44.6,15.66
449,Dikson,100,RU,1619912717,93,73.5069,80.5464,20.93,7.85
450,Betong,99,TH,1619913095,97,5.7743,101.0723,73.47,1.88
451,Los Llanos de Aridane,20,ES,1619912642,60,28.6585,-17.9182,68.0,11.5
452,Upernavik,8,GL,1619912617,83,72.7868,-56.1549,23.31,5.79
453,Tirumala,4,IN,1619913095,91,13.6833,79.35,68.45,3.87
454,Tazmalt,44,DZ,1619913096,84,36.3868,4.3989,57.99,4.14
455,Coos Bay,20,US,1619913096,72,43.3665,-124.2179,60.01,16.11
456,Tessalit,24,ML,1619913096,25,20.1986,1.0114,86.63,8.75
457,Springbok,0,ZA,1619913097,25,-29.6643,17.8865,59.36,16.69
458,Kikwit,93,CD,1619913097,95,-5.041,18.8162,68.0,2.98
459,Samarai,34,PG,1619913098,78,-10.6167,150.6667,81.09,9.75
460,Haines Junction,97,CA,1619913098,37,60.7522,-137.5108,48.2,6.91
461,Alta Floresta,97,BR,1619912575,93,-9.8756,-56.0861,72.72,2.06
462,Pringsewu,96,ID,1619913098,93,-5.3582,104.9744,75.11,0.67
463,Burnie,100,AU,1619913074,70,-41.0667,145.9167,61.39,7.47
464,Port Blair,40,IN,1619912634,75,11.6667,92.75,82.36,3.18
465,Tazovsky,100,RU,1619912793,88,67.4667,78.7,29.05,5.95
466,La Rioja,0,ES,1619913099,81,42.25,-2.5,42.8,2.3
467,Elbistan,39,TR,1619913099,57,38.2059,37.1983,55.96,4.18
468,Shostka,99,UA,1619913100,80,51.863,33.4698,50.25,5.73
469,Gardabani,0,GE,1619913100,88,41.4605,45.0928,57.2,5.75
470,Ixtapa,1,MX,1619912758,69,20.7,-105.2,80.6,14.97
471,Kaitangata,10,NZ,1619913100,55,-46.2817,169.8464,62.01,14.0
472,Judaberg,40,NO,1619913101,70,59.1659,5.8732,42.8,5.75
473,Sambava,22,MG,1619913101,92,-14.2667,50.1667,74.53,5.35
474,Vryburg,0,ZA,1619913101,63,-26.9566,24.7284,51.76,7.67
475,Vostok,79,RU,1619913100,58,46.4856,135.8833,40.77,8.19
476,Fomboni,11,KM,1619913102,75,-12.28,43.7425,82.71,10.2
477,Orbe,100,CH,1619913102,67,46.725,6.5307,41.0,1.61
478,Evensk,5,RU,1619913102,71,61.95,159.2333,30.36,4.38
479,Fuyu,3,CN,1619913103,45,45.1833,124.8167,55.72,3.71
480,Craig,1,US,1619913103,11,40.5153,-107.5464,78.8,24.16
481,Ürümqi,89,CN,1619913103,62,43.801,87.6005,50.0,4.47
482,‘Āhuimanu,40,US,1619913103,51,21.4447,-157.8378,84.2,17.27
483,Arroyo de la Encomienda,0,ES,1619913104,87,41.6096,-4.7969,43.0,11.5
484,Saint Anthony,40,US,1619913104,16,45.0205,-93.218,87.8,13.8
485,Mosquera,75,CO,1619913104,94,4.7059,-74.2302,57.2,8.05
486,Katsuura,20,JP,1619912631,63,35.1333,140.3,66.0,17.27
487,Gaza,0,PS,1619913105,55,31.5,34.4667,66.2,3.44
488,Pokhara,89,NP,1619913051,39,28.2333,83.9833,70.39,5.35
489,Dŭstí,40,TJ,1619913106,68,37.3481,68.664,69.8,6.71
490,Cairns,75,AU,1619913106,69,-16.9167,145.7667,81.0,13.8
491,High Level,75,CA,1619912622,49,58.5169,-117.136,46.4,11.5
492,Izmail,75,UA,1619913106,77,45.3493,28.8408,59.0,1.14
493,Rumoi,98,JP,1619913107,75,43.9344,141.6428,42.26,7.7
494,São José da Coroa Grande,95,BR,1619913107,85,-8.8978,-35.1478,77.0,7.49
495,Ciudad Real,100,ES,1619913108,66,39.0,-4.0,51.01,1.99
496,Taraz,2,KZ,1619913108,87,42.9,71.3667,44.6,6.71
497,Dhidhdhoo,61,MV,1619913108,71,6.8833,73.1,84.07,4.9
498,Srednekolymsk,10,RU,1619913109,78,67.45,153.6833,28.65,7.4
499,Hienghène,99,NC,1619913109,75,-20.6833,164.9333,76.24,16.02
500,Sola,95,VU,1619912862,84,-13.8833,167.55,78.01,13.09
501,Guerrero Negro,69,MX,1619913109,63,27.9769,-114.0611,67.78,21.12
502,West Plains,1,US,1619913110,31,36.7281,-91.8524,77.0,9.22
503,Ambilobe,15,MG,1619913110,95,-13.2,49.05,72.41,3.24
504,Yurla,63,RU,1619913110,92,59.3259,54.3223,34.25,5.66
505,Esim,87,GH,1619913111,82,4.8699,-2.2405,81.41,6.02
506,Puerto Baquerizo Moreno,64,EC,1619913111,74,-0.9,-89.6,75.36,8.23
507,Launceston,90,AU,1619912890,100,-41.45,147.1667,50.0,5.75
508,Ust'-Karsk,100,RU,1619913111,39,52.7011,118.8077,53.42,6.13
509,Poum,91,NC,1619913112,71,-20.2333,164.0167,77.72,6.89
510,Shintomi,20,JP,1619913112,48,32.0785,131.4723,60.8,19.57
511,Piaçabuçu,100,BR,1619913112,86,-10.4056,-36.4344,76.75,14.0
512,Illapel,100,CL,1619913113,66,-31.6308,-71.1653,62.2,2.57
513,Mīrābād,95,AF,1619913113,60,30.4362,61.8383,71.89,4.61
514,Marmande,18,FR,1619913113,96,44.5,0.1667,39.99,1.01
515,Beruwala,98,LK,1619913114,86,6.4788,79.9828,77.49,2.53
516,Bagaces,0,CR,1619913114,61,10.5271,-85.2548,84.2,8.05
517,Gwadar,11,PK,1619913114,75,25.1216,62.3254,81.5,7.94
518,Kinshasa,99,CD,1619913115,94,-4.3246,15.3215,73.4,3.44
519,Kaoma,83,ZM,1619913115,96,-14.7833,24.8,63.09,4.32
520,Athabasca,93,CA,1619913115,46,54.7169,-113.2854,53.6,9.22
521,Mount Gambier,75,AU,1619912880,88,-37.8333,140.7667,59.0,8.05
522,Orcopampa,31,PE,1619913116,68,-15.2661,-72.3417,45.95,3.42
523,Cabo San Lucas,1,MX,1619912619,47,22.8909,-109.9124,79.0,6.91
524,Quatre Cocos,40,MU,1619913116,94,-20.2078,57.7625,75.0,3.44
525,Lander,1,US,1619913116,28,42.833,-108.7307,69.8,12.66
526,Romans-sur-Isère,75,FR,1619913117,93,45.0464,5.0562,46.0,4.61
527,Kismayo,39,SO,1619913117,82,-0.3582,42.5454,81.12,9.89
528,Tigil',57,RU,1619913117,54,57.8,158.6667,41.56,4.9
529,Khanbari,84,NP,1619912944,57,27.3747,87.2039,66.7,3.11
530,Nago,1,JP,1619913118,83,26.5881,127.9761,71.6,9.22
531,Podgornoye,0,RU,1619913118,57,51.735,39.1496,50.0,2.24
532,Ubari,100,LY,1619913118,3,26.5921,12.7805,84.24,11.18
533,Celestún,29,MX,1619912955,75,20.8667,-90.4,81.25,16.55
534,Lyuban',100,BY,1619913119,94,52.7985,28.0048,46.78,7.47
535,Aksarka,100,RU,1619913119,98,66.5606,67.7975,32.07,16.17
536,Namatanai,42,PG,1619912714,66,-3.6667,152.4333,85.3,1.34
537,Krasne,90,UA,1619913119,93,49.9145,24.6134,53.01,2.24
538,Bandarbeyla,73,SO,1619912718,74,9.4942,50.8122,83.37,7.07
539,Yukamenskoye,81,RU,1619913120,88,57.8865,52.2416,35.06,6.24
540,Bristol,1,US,1619913120,29,41.8334,-71.1662,60.8,8.05
541,Xushan,0,CN,1619913120,72,30.1764,121.2457,69.01,4.47
542,Lakshmeshwar,12,IN,1619913121,59,15.1333,75.4667,79.5,4.99
543,Fort Frances,1,CA,1619912930,20,48.5999,-93.4003,73.4,10.36
544,Tautira,20,PF,1619913121,58,-17.7333,-149.15,87.8,5.75
545,Chimoré,19,BO,1619913121,81,-16.9833,-65.1333,71.17,1.45
546,Linfen,100,CN,1619913122,28,36.0889,111.5189,62.78,9.98
547,Marzuq,100,YE,1619913122,92,14.4,46.4667,64.33,2.68
548,Bilibino,68,RU,1619913122,61,68.0546,166.4372,18.48,3.31
549,Sydney,75,AU,1619912977,68,-33.8679,151.2073,70.0,5.75
550,Anadyr,40,RU,1619913123,79,64.75,177.4833,14.0,8.95
551,Tailai,55,CN,1619913123,40,46.3833,123.4,55.99,3.74
552,Katangli,100,RU,1619913123,98,51.7102,143.2326,31.87,20.45
553,Lapeer,1,US,1619913124,34,43.0514,-83.3188,68.0,13.8
554,Alugan,46,PH,1619913124,83,12.2188,125.4808,81.73,9.13
555,Kalispell,75,US,1619913124,22,48.1958,-114.3129,68.0,19.57
556,Laguna,1,US,1619913040,36,38.421,-121.4238,80.6,16.11
557,Tyup,94,KG,1619913125,56,42.7276,78.3648,46.18,5.82
558,Praia,40,CV,1619913125,78,14.9215,-23.5087,71.6,19.57
559,Batemans Bay,100,AU,1619912959,100,-35.7167,150.1833,64.99,4.27
560,Yuzhno-Kurilsk,100,RU,1619913125,86,44.0306,145.8556,37.78,6.08
561,Sosnytsya,94,UA,1619913126,77,51.5239,32.4999,52.34,7.45
562,Mamonovo,0,RU,1619913126,70,54.4643,19.938,44.01,6.71
563,Mayo,1,US,1619912666,20,38.8876,-76.5119,66.2,5.75
564,Carahue,90,CL,1619913127,100,-38.7,-73.1667,53.6,6.91
565,Katubao,86,PH,1619913127,68,5.8892,124.8294,84.88,2.62
566,Hwange,85,ZW,1619913127,65,-18.3693,26.5019,68.7,9.98
567,Severo-Yeniseyskiy,100,RU,1619913127,96,60.3725,93.0408,30.56,8.7
568,Umluj,0,SA,1619912779,57,25.0213,37.2685,80.82,8.52
569,Sur,44,OM,1619913038,56,22.5667,59.5289,81.77,11.43
